
[{'stop_id': 'regdrgar_d', 'title': 'Regents Drive Garage', 'lat': 38.9895211, 'long': -76.9407719}]
[{'stop_id': 'campmath', 'title': 'Campus Dr at Math Slip', 'lat': 38.9878609, 'long': -76.9386053}]
[{'stop_id': 'paingree', 'title': 'Campus Drive and Diamondback Drive', 'lat': 38.9879877, 'long': -76.934037}]
[{'stop_id': 'painrhod', 'title': 'Campus Drive and Rhode Island Avenue (Outbound)', 'lat': 38.9836051, 'long': -76.9313264}]
[{'stop_id': 'cpmetro_d', 'title': 'College Park - UMD Metro Station', 'lat': 38.9755375, 'long': -76.9279988}]
[{'stop_id': 'painrhod_in', 'title': 'Campus Drive and Rhode Island Avenue (Inbound)', 'lat': 38.9835717, 'long': -76.930958}]
[{'stop_id': 'painglen', 'title': 'Glenn L. Martin Wind Tunnel', 'lat': 38.9899498, 'long': -76.9372499}]
[{'stop_id': 'stamsu_d', 'title': 'Stamp Student Union - Slip', 'lat': 38.9876099, 'long': -76.9439449}]
[{'stop_id': 'artsoci', 'title': 'Art/Sociology Building', 'lat': 38.98529, 'long': -76.94677}]
[{'stop_id': 'wico', 'title': 'Wicomico Hall', 'lat': 38.98375, 'long': -76.94516}]
[{'stop_id': 'lotu4', 'title': 'Preinkert Drive at Lot MV', 'lat': 38.9821893, 'long': -76.944884}]
[{'stop_id': 'guilrowa', 'title': 'Guilford Drive and Rowalt Drive (Outbound)', 'lat': 38.978183, 'long': -76.939469}]
[{'stop_id': 'hartshop', 'title': 'Baltimore Avenue and Hartwick Road (Inbound)', 'lat': 38.97944, 'long': -76.93783}]
[{'stop_id': 'mont_in', 'title': 'Montgomery Hall (Inbound)', 'lat': 38.9824955, 'long': -76.9391275}]
[{'stop_id': 'memo_in', 'title': 'Memorial Chapel (Inbound)', 'lat': 38.9845403, 'long': -76.94007}]
[{'stop_id': 'mitc_in', 'title': 'Mitchell Building (Inbound)', 'lat': 38.9863659, 'long': -76.9401199}]
[{'stop_id': 'regestad', 'title': 'Regents Dr and Stadium Dr', 'lat': 38.990012, 'long': -76.9406498}]
[{'stop_id': 'regefarm_out', 'title': 'Regents Dr and Farm Dr (Outbound)', 'lat': 38.9912621, 'long': -76.9406599}]
[{'stop_id': 'regecomc_out', 'title': 'Regents Drive at XFINITY Center (Outbound)', 'lat': 38.9934725, 'long': -76.9399271}]
[{'stop_id': 'regepain_out', 'title': 'Regents Dr and Paint Branch Dr (Outbound)', 'lat': 38.9936299, 'long': -76.9374809}]
[{'stop_id': 'shutbase_out', 'title': 'Shuttle-UM Base (Outbound)', 'lat': 38.9953477, 'long': -76.9374989}]
[{'stop_id': 'lot4_out', 'title': 'Paint Branch Dr at Lot 4b (Outbound)', 'lat': 38.997895, 'long': -76.940414}]
[{'stop_id': 'metzgree', 'title': 'Metzerott Rd and Greenmead Dr', 'lat': 39.0009112, 'long': -76.9444714}]
[{'stop_id': 'gree_out', 'title': 'Greenmead Dr at Maryland 4-H (Outbound)', 'lat': 39.0020477, 'long': -76.9434987}]
[{'stop_id': 'cour500', 'title': 'Courtyards #500', 'lat': 39.0030898, 'long': -76.94257}]
[{'stop_id': 'greemead_in', 'title': 'Greenmead Dr at Maryland 4-H (Inbound)', 'lat': 39.0026768, 'long': -76.9433279}]
[{'stop_id': 'greemetz', 'title': 'Greenmeade Dr and Metzerott Rd', 'lat': 39.0010682, 'long': -76.9446931}]
[{'stop_id': 'lot4_in', 'title': 'Paint Branch Dr at Lot 4b (Inbound)', 'lat': 38.9978287, 'long': -76.9404883}]
[{'stop_id': 'shutbase_in', 'title': 'Shuttle-UM Base (Inbound)', 'lat': 38.9953571, 'long': -76.9375886}]
[{'stop_id': 'regepain', 'title': 'Regents Dr and Paint Branch Dr (Inbound)', 'lat': 38.9936749, 'long': -76.9377348}]
[{'stop_id': 'regecomc_in', 'title': 'Regents Drive at XFINITY Center (Inbound)', 'lat': 38.9936404, 'long': -76.9398124}]
[{'stop_id': 'regefarm_in', 'title': 'Regents Dr and Farm Dr (Inbound)', 'lat': 38.9914838, 'long': -76.9407074}]
[{'stop_id': 'regegara_d', 'title': 'Regents Drive Garage', 'lat': 38.9895254, 'long': -76.94075}]
[{'stop_id': 'camplt1d', 'title': 'Campus Dr at Lot 3', 'lat': 38.9846897, 'long': -76.9510623}]
[{'stop_id': 'umuc', 'title': 'UMUC - College Park Marriott', 'lat': 38.985281, 'long': -76.9540366}]
[{'stop_id': 'metzgree_out', 'title': 'Metzerott Rd and Greenmead Dr (Outbound)', 'lat': 39.0008257, 'long': -76.9439972}]
[{'stop_id': 'metz36th', 'title': 'Metzerott Road and 36th Avenue (Outbound)', 'lat': 39.0014357, 'long': -76.9474842}]
[{'stop_id': 'metzstan_out', 'title': "Metzerott Road and St. Andrew's Place (Outbound)", 'lat': 39.0018938, 'long': -76.9501337}]
[{'stop_id': 'metzsa', 'title': 'Metzerott Rd @ System Administration', 'lat': 39.002414, 'long': -76.9531702}]
[{'stop_id': 'arch_ob', 'title': 'Metzerott Rd at Archives II (Outbound)', 'lat': 39.0031633, 'long': -76.9581295}]
[{'stop_id': 'metzadel', 'title': 'Metzerott Rd and Adelphi Rd', 'lat': 39.0025171, 'long': -76.9657198}]
[{'stop_id': 'coolspri_out', 'title': 'Metzerott Rd and Riggs Rd (Outbound)', 'lat': 39.0032699, 'long': -76.972258}]
[{'stop_id': 'metzpres', 'title': 'Metzerott Rd at Presidential Towers', 'lat': 39.0037089, 'long': -76.9755719}]
[{'stop_id': 'metznham_out', 'title': 'Metzerott Rd and New Hampshire Ave (Outbound)', 'lat': 39.0042327, 'long': -76.9804472}]
[{'stop_id': 'nhamfox', 'title': 'New Hampshire Ave and Fox St', 'lat': 39.0080415, 'long': -76.9797824}]
[{'stop_id': 'nhamadel_out', 'title': 'New Hampshire Ave and Adelphi Road (Outbound)', 'lat': 39.0110759, 'long': -76.9789397}]
[{'stop_id': 'nhamoak_out', 'title': 'New Hampshire Ave and Oakview Dr (Outbound)', 'lat': 39.0150626, 'long': -76.9777991}]
[{'stop_id': 'chateau_r', 'title': 'Mt Pisgah Rd at Chateau Apartments', 'lat': 39.01658, 'long': -76.97613}]
[{'stop_id': 'nhamadel_in', 'title': 'New Hampshire Ave and Adelphi Rd (Inbound)', 'lat': 39.0116175, 'long': -76.9790439}]
[{'stop_id': 'metznham_in', 'title': 'Metzerott Rd and New Hampshire Ave (Inbound)', 'lat': 39.0041118, 'long': -76.9800581}]
[{'stop_id': 'metz1811', 'title': 'Metzerott Rd at The Delano Apts', 'lat': 39.0036704, 'long': -76.9760639}]
[{'stop_id': 'coolspri_in', 'title': 'Metzerott Rd and Riggs Rd (Inbound)', 'lat': 39.0032712, 'long': -76.97287}]
[{'stop_id': 'metz24th', 'title': 'Metzerott Rd and 24th Ave', 'lat': 39.0025883, 'long': -76.9668481}]
[{'stop_id': 'metzarch', 'title': 'Metzerott Rd at Archives II (Inbound)', 'lat': 39.00314, 'long': -76.9589308}]
[{'stop_id': 'metzobse', 'title': 'Metzerott Rd @ UM Observatory', 'lat': 39.0025843, 'long': -76.9545755}]
[{'stop_id': 'metzstan_in', 'title': "Metzerott Road and St. Andrew's Place (Inbound)", 'lat': 39.002051, 'long': -76.9514869}]
[{'stop_id': 'metz36th_in', 'title': 'Metzerott Road and 36th Avenue (Inbound)', 'lat': 39.0014833, 'long': -76.9481327}]
[{'stop_id': 'metzgree_in', 'title': 'Metzerott Rd and University Blvd (Inbound)', 'lat': 39.0008996, 'long': -76.9447876}]
[{'stop_id': 'painrege_bus', 'title': 'Paint Branch Dr and Regents Dr (Bus Shelter)', 'lat': 38.993499, 'long': -76.9373896}]
[{'stop_id': 'painstad', 'title': 'Paint Branch Dr and Stadium Dr', 'lat': 38.9902898, 'long': -76.9373}]
[{'stop_id': 'acphys', 'title': 'River Road and Rivertech Court', 'lat': 38.969956, 'long': -76.927107}]
[{'stop_id': 'acphys_elli', 'title': 'American Center for Physics', 'lat': 38.9718215, 'long': -76.9301382}]
[{'stop_id': 'rayt', 'title': 'Raytheon', 'lat': 38.9683562, 'long': -76.9283283}]
[{'stop_id': 'collpark', 'title': 'College Park Academy', 'lat': 38.9682907, 'long': -76.9279223}]
[{'stop_id': 'diviofit', 'title': 'Division of IT', 'lat': 38.9691729, 'long': -76.9232474}]
[{'stop_id': 'msqua', 'title': 'M-Square', 'lat': 38.9707579, 'long': -76.922991}]
[{'stop_id': 'usda', 'title': 'USDA', 'lat': 38.9698863, 'long': -76.9261352}]
[{'stop_id': 'rrmshel', 'title': 'River Road at American Center for Physics', 'lat': 38.9722046, 'long': -76.9283434}]
[{'stop_id': 'cher9348', 'title': 'Seven Springs Apts at 9348 Cherry Hill Rd', 'lat': 39.016946, 'long': -76.9393952}]
[{'stop_id': 'ssvill', 'title': 'Seven Springs Apts at 9310 Cherry Hill Rd', 'lat': 39.0159991, 'long': -76.9394283}]
[{'stop_id': 'cher9308', 'title': 'Seven Springs Apts at 9308 Cherry Hill Rd', 'lat': 39.0178782, 'long': -76.9376829}]
[{'stop_id': 'stamsuhh_d', 'title': 'Stamp Student Union - Slip', 'lat': 38.9874519, 'long': -76.9440396}]
[{'stop_id': 'univtula', 'title': 'University Blvd and Tulane Dr', 'lat': 38.9853988, 'long': -76.9588032}]
[{'stop_id': 'univshop_out', 'title': 'University Blvd at Adelphi Plaza', 'lat': 38.9846405, 'long': -76.9671043}]
[{'stop_id': 'univguil_out', 'title': 'University Blvd at Campus Gardens', 'lat': 38.984079, 'long': -76.9730672}]
[{'stop_id': 'univrigg_out', 'title': 'University Blvd and Riggs Rd (Outbound)', 'lat': 38.9845483, 'long': -76.9803602}]
[{'stop_id': 'univ14th', 'title': 'University Blvd and 14th Ave', 'lat': 38.9880237, 'long': -76.98621}]
[{'stop_id': 'univrite', 'title': 'Takoma-Langley Crossroads Transit Center (Outbound)', 'lat': 38.989844, 'long': -76.9885876}]
[{'stop_id': 'merrilock', 'title': 'Merrimac Dr and Lockney Ave', 'lat': 38.99242, 'long': -76.99214}]
[{'stop_id': 'carrchest', 'title': 'Carroll Ave and Chester St', 'lat': 38.9899268, 'long': -76.9935629}]
[{'stop_id': 'carrglen', 'title': 'Carroll Ave and Glenside Dr', 'lat': 38.9879584, 'long': -76.994382}]
[{'stop_id': 'carrgarl', 'title': 'Caroll Ave and Garland Ave (Outbound)', 'lat': 38.9862204, 'long': -76.9963195}]
[{'stop_id': 'flowcarr', 'title': 'Flower Ave and Carroll Ave (Outbound)', 'lat': 38.9853069, 'long': -76.9988477}]
[{'stop_id': 'flowdivi', 'title': 'Flower Ave at Washington Adventist University (Outbound)', 'lat': 38.9867605, 'long': -76.9998514}]
[{'stop_id': 'flowkenne', 'title': 'Flower Ave and Kennebec Ave (Outbound)', 'lat': 38.9895808, 'long': -77.0013728}]
[{'stop_id': 'flowhuds', 'title': 'Flower Ave and Hudson (Outbound)', 'lat': 38.9924554, 'long': -77.0021792}]
[{'stop_id': 'flowdome', 'title': 'Flower Ave and Domer Ave (Outbound)', 'lat': 38.9966735, 'long': -77.0031553}]
[{'stop_id': 'flowplym', 'title': 'Flower Ave and Plymouth St', 'lat': 39.00156, 'long': -77.00454}]
[{'stop_id': 'waynslig_out', 'title': 'Wayne Ave and Sligo Creek Pkwy (Outbound)', 'lat': 38.9996595, 'long': -77.0104152}]
[{'stop_id': 'wayndale_out', 'title': 'Wayne Ave and Dale Dr (Outbound)', 'lat': 38.9993802, 'long': -77.0172814}]
[{'stop_id': 'waynwhol', 'title': 'Wayne Ave and Fenton St (Outbound)', 'lat': 38.9959666, 'long': -77.0235453}]
[{'stop_id': 'ssmetro', 'title': 'Silver Spring Metro Station', 'lat': 38.993673, 'long': -77.029742}]
[{'stop_id': 'waynfent', 'title': 'Wayne Ave and Fenton St (Inbound)', 'lat': 38.9952298, 'long': -77.0245902}]
[{'stop_id': 'wayndale_in', 'title': 'Wayne Ave and Dale Dr (Inbound)', 'lat': 38.9992414, 'long': -77.0177496}]
[{'stop_id': 'waynslig_in', 'title': 'Wayne Ave and Manchester Place (Inbound)', 'lat': 39.0016406, 'long': -77.0077193}]
[{'stop_id': 'flowplym_in', 'title': 'Flower Ave and Plymouth St (Inbound)', 'lat': 39.001575, 'long': -77.0046644}]
[{'stop_id': 'flowdome_in', 'title': 'Flower Ave and Domer Ave (Inbound)', 'lat': 38.9962614, 'long': -77.0031528}]
[{'stop_id': 'flowhuds_in', 'title': 'Flower Ave and Hudson (Inbound)', 'lat': 38.9925543, 'long': -77.00228}]
[{'stop_id': 'flowkenn_in', 'title': 'Flower Ave and Kennebec (Inbound)', 'lat': 38.9897144, 'long': -77.0015479}]
[{'stop_id': 'flowdivi_inn', 'title': 'Flower Ave at Washington Adventist University (Inbound)', 'lat': 38.9870475, 'long': -77.0001883}]
[{'stop_id': 'flowcarr_in', 'title': 'Flower Ave and Carroll Ave (Inbound)', 'lat': 38.9852146, 'long': -76.9989177}]
[{'stop_id': 'carrgarl_in', 'title': 'Carroll Ave and Garland Ave (Inbound)', 'lat': 38.9862373, 'long': -76.9961839}]
[{'stop_id': 'carranne_in', 'title': 'Carroll Ave and Anne St', 'lat': 38.9876429, 'long': -76.994607}]
[{'stop_id': 'carrwild_in', 'title': 'Carroll Ave and Wildwood Dr', 'lat': 38.9897314, 'long': -76.9935114}]
[{'stop_id': 'merriuniv', 'title': 'Merrimac Dr and University Blvd', 'lat': 38.9924899, 'long': -76.99173}]
[{'stop_id': 'univhamp', 'title': 'Takoma-Langley Crossroads Transit Center (Inbound)', 'lat': 38.990052, 'long': -76.988171}]
[{'stop_id': 'univ15th', 'title': 'University Blvd and 15th Ave', 'lat': 38.9852516, 'long': -76.9818874}]
[{'stop_id': 'univhech', 'title': 'University Blvd and Riggs Road (Inbound)', 'lat': 38.9834699, 'long': -76.9776816}]
[{'stop_id': 'univ25th_in', 'title': 'University Blvd and 25th Ave', 'lat': 38.9844296, 'long': -76.9674135}]
[{'stop_id': 'univgrad', 'title': 'University Blvd at Graduate Hills', 'lat': 38.9853553, 'long': -76.9578695}]
[{'stop_id': 'cspa_main', 'title': 'Stadium Drive and University Boulevard', 'lat': 38.991756, 'long': -76.950237}]
[{'stop_id': 'stadgara', 'title': 'Stadium Drive Garage', 'lat': 38.9917469, 'long': -76.9475442}]
[{'stop_id': 'stadvtho', 'title': 'Varsity Team House', 'lat': 38.9906015, 'long': -76.9454061}]
[{'stop_id': 'gradhill', 'title': 'Adelphi Rd at Graduate Hills Apts', 'lat': 38.9846606, 'long': -76.9555421}]
[{'stop_id': 'adelwell_out', 'title': 'Adelphi Rd and Wells Blvd', 'lat': 38.9795417, 'long': -76.9545905}]
[{'stop_id': 'adel_nwhs', 'title': 'Adelphi Rd at Northwestern HS', 'lat': 38.9754953, 'long': -76.952102}]
[{'stop_id': 'toleadel', 'title': 'Toledo Rd and Adelphi Rd', 'lat': 38.97007, 'long': -76.9497998}]
[{'stop_id': 'tolebelc', 'title': 'Toledo and Belcrest Rd (Outbound)', 'lat': 38.96991, 'long': -76.9532842}]
[{'stop_id': 'targ', 'title': "The Mall at Prince George's", 'lat': 38.96821, 'long': -76.95417}]
[{'stop_id': 'pgmetro_out', 'title': "Prince George's Plaza Metro Station (Outbound)", 'lat': 38.9658812, 'long': -76.954134}]
[{'stop_id': '39thquee', 'title': 'Queensbury Rd and 39th Pl', 'lat': 38.96391, 'long': -76.9503707}]
[{'stop_id': '42ndquee', 'title': '42nd Ave and Queensbury Rd', 'lat': 38.9635641, 'long': -76.9462603}]
[{'stop_id': '42ndogle', 'title': '42nd Ave and Oglethorpe St', 'lat': 38.9596743, 'long': -76.9465446}]
[{'stop_id': '42ndmadi', 'title': '42nd Ave and Madison St', 'lat': 38.9580062, 'long': -76.9467596}]
[{'stop_id': '42ndjeff', 'title': '42nd Ave and Jefferson St', 'lat': 38.9553894, 'long': -76.9457762}]
[{'stop_id': '42ndfarr', 'title': 'Farragut St and 42nd Pl', 'lat': 38.9517499, 'long': -76.944358}]
[{'stop_id': 'farrrhod', 'title': 'Farragut St and Rhode Island Ave', 'lat': 38.95166, 'long': -76.94123}]
[{'stop_id': 'baltgall', 'title': 'Baltimore Ave and Gallatin St', 'lat': 38.9530736, 'long': -76.9404606}]
[{'stop_id': 'balthami', 'title': 'Baltimore Ave and Hamilton St', 'lat': 38.9542751, 'long': -76.9403194}]
[{'stop_id': 'baltlong', 'title': 'Baltimore Ave and Longfellow St', 'lat': 38.9567242, 'long': -76.9400419}]
[{'stop_id': 'baltogle', 'title': 'Baltimore Ave and Oglethorpe St', 'lat': 38.9593855, 'long': -76.9397604}]
[{'stop_id': '44thquee', 'title': 'Queensbury Rd and 44th Pl', 'lat': 38.9632582, 'long': -76.9404546}]
[{'stop_id': 'quee42nd', 'title': 'Queensbury Rd and 42nd Pl', 'lat': 38.9637691, 'long': -76.9450616}]
[{'stop_id': 'belcquch', 'title': 'Belcrest Rd and Queens Chapel Rd', 'lat': 38.9643701, 'long': -76.9527003}]
[{'stop_id': 'pgmetro_in', 'title': "Prince George's Plaza Metro Station (Inbound)", 'lat': 38.9654413, 'long': -76.9537801}]
[{'stop_id': 'pgcc', 'title': "Prince George's Community College", 'lat': 38.9681505, 'long': -76.95394}]
[{'stop_id': 'belctole', 'title': 'Toledo Rd and Belcrest Rd (Inbound)', 'lat': 38.9698444, 'long': -76.9532048}]
[{'stop_id': 'adeltole', 'title': 'Adelphi Rd and Toledo Rd', 'lat': 38.9706254, 'long': -76.9490295}]
[{'stop_id': 'adelvbur', 'title': 'Adelphi Rd and Van Buren St', 'lat': 38.975281, 'long': -76.9517565}]
[{'stop_id': 'adelwell_in', 'title': 'Adelphi Rd and Wells Pkwy (Inbound)', 'lat': 38.9792306, 'long': -76.9543073}]
[{'stop_id': 'adeltula', 'title': 'Adelphi Rd and Campus Dr', 'lat': 38.9846321, 'long': -76.9553383}]
[{'stop_id': 'collpksh', 'title': 'College Park Shopping Ctr (Outbound)', 'lat': 38.9809619, 'long': -76.9390277}]
[{'stop_id': 'baltritc', 'title': 'Ritchie Coliseum', 'lat': 38.9852774, 'long': -76.9370967}]
[{'stop_id': 'univview', 'title': 'University View', 'lat': 38.99234, 'long': -76.9338999}]
[{'stop_id': 'baltvars', 'title': 'Baltimore Ave at The Varsity', 'lat': 38.9908313, 'long': -76.9340075}]
[{'stop_id': 'mcirc', 'title': 'Campus Dr at M Circle', 'lat': 38.987699, 'long': -76.9395199}]
[{'stop_id': 'lot1', 'title': 'Union Dr at Lot 1b', 'lat': 38.9872099, 'long': -76.9481576}]
[{'stop_id': 'cspac', 'title': 'Valley Drive at Stadium Drive Garage', 'lat': 38.9902373, 'long': -76.9494}]
[{'stop_id': 'elk', 'title': 'Elkton Hall', 'lat': 38.9924177, 'long': -76.9485888}]
[{'stop_id': 'hage', 'title': 'Hagerstown Hall', 'lat': 38.99297, 'long': -76.947599}]
[{'stop_id': 'laplat', 'title': 'La Plata Hall', 'lat': 38.9922186, 'long': -76.94563}]
[{'stop_id': 'varhous', 'title': 'Varsity Team House', 'lat': 38.9906039, 'long': -76.9454355}]
[{'stop_id': 'stadatl', 'title': 'Stadium Drive at Atlantic Building', 'lat': 38.9905589, 'long': -76.9421162}]
[{'stop_id': 'mitc_out', 'title': 'Mitchell Building (Outbound)', 'lat': 38.9866498, 'long': -76.9401999}]
[{'stop_id': 'memo_out', 'title': 'Memorial Chapel (Outbound)', 'lat': 38.9848206, 'long': -76.94015}]
[{'stop_id': 'mont_out', 'title': 'Montgomery Hall (Outbound)', 'lat': 38.9824312, 'long': -76.9391529}]
[{'stop_id': 'baltritc_s', 'title': 'Ritchie Coliseum', 'lat': 38.9852774, 'long': -76.9370967}]
[{'stop_id': 'mcirc_s', 'title': 'Campus Dr at M Circle', 'lat': 38.9877034, 'long': -76.9394934}]
[{'stop_id': 'hoff', 'title': 'Hoff Theater', 'lat': 38.9880692, 'long': -76.94539}]
[{'stop_id': 'uniofiel', 'title': 'Union Ln and Fieldhouse Dr', 'lat': 38.9886932, 'long': -76.9453067}]
[{'stop_id': 'biofield', 'title': 'BioSciences Research Building', 'lat': 38.9892576, 'long': -76.9421089}]
[{'stop_id': 'cour300', 'title': 'Courtyards #300', 'lat': 39.0013104, 'long': -76.9419255}]
[{'stop_id': 'cour400', 'title': 'Courtyards #400', 'lat': 39.001867, 'long': -76.94271}]
[{'stop_id': 'gree', 'title': 'Greenmeade Dr at Maryland 4-H (Inbound)', 'lat': 39.0026811, 'long': -76.9433266}]
[{'stop_id': 'lot4i_r', 'title': 'Paint Branch Dr at Lot 4b (Inbound)', 'lat': 38.9978287, 'long': -76.9404883}]
[{'stop_id': 'univclub', 'title': 'University Club Apartments', 'lat': 38.9906518, 'long': -76.9298057}]
[{'stop_id': 'varsity', 'title': 'Baltimore Ave at The Varsity', 'lat': 38.9908309, 'long': -76.9340079}]
[{'stop_id': 'dent', 'title': 'Denton Hall', 'lat': 38.9919122, 'long': -76.9500274}]
[{'stop_id': 'tula3424', 'title': 'Graduate Hills at 3424 Tulane Dr', 'lat': 38.9849405, 'long': -76.9559259}]
[{'stop_id': 'tula3410', 'title': 'Graduate Hills at 3410 Tulane Dr', 'lat': 38.984739, 'long': -76.9572802}]
[{'stop_id': 'tula3403', 'title': 'Graduate Hills at 3404 Tulane Dr', 'lat': 38.9846822, 'long': -76.95824}]
[{'stop_id': 'camplot19', 'title': 'Campus Dr at UMUC Lot 19', 'lat': 38.9852911, 'long': -76.9544776}]
[{'stop_id': 'univbapt', 'title': 'University Methodist Church', 'lat': 38.9848573, 'long': -76.9524262}]
[{'stop_id': 'hillmunc', 'title': 'Van Munching Hall (Inbound)', 'lat': 38.9830167, 'long': -76.9482112}]
[{'stop_id': 'lds', 'title': 'LDS Institute of Religion', 'lat': 38.9822297, 'long': -76.9471916}]
[{'stop_id': 'sccomm1_2', 'title': 'South Campus Commons 1 & 2', 'lat': 38.9823305, 'long': -76.9434585}]
[{'stop_id': '4315rwlt', 'title': 'Graduate Gardens at 4315 Rowalt Dr', 'lat': 38.9788425, 'long': -76.9414545}]
[{'stop_id': '4327rwlt', 'title': 'Graduate Gardens at 4327 Rowalt Dr', 'lat': 38.9782048, 'long': -76.9400307}]
[{'stop_id': 'balthart_in', 'title': 'Baltimore Ave and Hartwick Rd (Inbound)', 'lat': 38.9794663, 'long': -76.93783}]
[{'stop_id': 'shoebuil', 'title': 'Shoemaker Building', 'lat': 38.9838654, 'long': -76.9421853}]
[{'stop_id': 'loty', 'title': 'Lot Y and Chapel Dr', 'lat': 38.9843599, 'long': -76.9417399}]
[{'stop_id': 'painstad_r', 'title': 'Glenn L. Martin Wind Tunnel', 'lat': 38.9899585, 'long': -76.9372506}]
[{'stop_id': 'avwill', 'title': 'A.V. Williams Building', 'lat': 38.9909815, 'long': -76.93726}]
[{'stop_id': 'techpain', 'title': 'Paint Branch Dr and Technology Dr', 'lat': 38.9925816, 'long': -76.93727}]
[{'stop_id': 'camb', 'title': 'Cambridge Hall (Outbound)', 'lat': 38.9914576, 'long': -76.943027}]
[{'stop_id': 'cumber', 'title': 'Cumberland Hall', 'lat': 38.9923509, 'long': -76.944254}]
[{'stop_id': 'stamsu_m', 'title': 'Stamp Student Union - Slip', 'lat': 38.9876098, 'long': -76.9439438}]
[{'stop_id': 'knoxyale', 'title': 'Knox Road and Yale Avenue', 'lat': 38.9806089, 'long': -76.9368551}]
[{'stop_id': 'prinknox', 'title': 'Knox Rd and Princeton Ave', 'lat': 38.9802601, 'long': -76.9353307}]
[{'stop_id': 'hopkknox', 'title': 'Knox Rd and Hopkins Ave', 'lat': 38.9799235, 'long': -76.9338359}]
[{'stop_id': 'knoxrhod', 'title': 'Knox Rd and Rhode Island Ave', 'lat': 38.9796165, 'long': -76.9324227}]
[{'stop_id': 'rhodcoll', 'title': 'Rhode Island Ave & College Ave', 'lat': 38.9807245, 'long': -76.9318659}]
[{'stop_id': 'rhodnorw_s', 'title': 'Rhode Island Ave and Norwich Rd', 'lat': 38.9818979, 'long': -76.9313952}]
[{'stop_id': 'rossrhod', 'title': 'Rossborough Ln and Rhode Island Ave', 'lat': 38.9834008, 'long': -76.93131}]
[{'stop_id': '5frat', 'title': 'Fraternity Row #5', 'lat': 38.9848022, 'long': -76.9342719}]
[{'stop_id': 'leoncomm_out', 'title': 'Leonardtown Community Center', 'lat': 38.98371, 'long': -76.9337999}]
[{'stop_id': '11frat', 'title': 'Fraternity Row #11', 'lat': 38.983016, 'long': -76.9354865}]
[{'stop_id': 'yalecoll', 'title': 'Yale Ave and Lehigh Rd', 'lat': 38.9815053, 'long': -76.9364056}]
[{'stop_id': 'yaleknox_ib', 'title': 'Yale Avenue and Knox Road', 'lat': 38.9806721, 'long': -76.9368328}]
[{'stop_id': 'collpksh_ib', 'title': 'College Park Shopping Center (Inbound)', 'lat': 38.9810063, 'long': -76.9389541}]
[{'stop_id': 'scam34', 'title': 'South Campus Commons 3 and 4', 'lat': 38.9811409, 'long': -76.9408182}]
[{'stop_id': 'sccomm5_6', 'title': 'South Campus Commons 5 and 6', 'lat': 38.9823229, 'long': -76.9448437}]
[{'stop_id': 'lota', 'title': 'Preinkert Drive at Lot A', 'lat': 38.9842509, 'long': -76.9451946}]
[{'stop_id': 'somehall', 'title': 'Somerset Hall', 'lat': 38.9847538, 'long': -76.9458235}]
[{'stop_id': 'annearun', 'title': 'Anne Arundel Hall', 'lat': 38.9859448, 'long': -76.9469495}]
[{'stop_id': 'dorchall', 'title': 'Dorchester Hall', 'lat': 38.9869691, 'long': -76.9465401}]
[{'stop_id': 'univshad', 'title': 'The Universities at Shady Grove', 'lat': 39.0934528, 'long': -77.2018299}]
[{'stop_id': 'univpkth', 'title': 'Baltimore Ave at University Park Town Hall', 'lat': 38.9725018, 'long': -76.9380183}]
[{'stop_id': 'baltrive_out', 'title': 'Baltimore Avenue at Riverdale Park Station (Outbound)', 'lat': 38.9699162, 'long': -76.9383656}]
[{'stop_id': 'baltunde', 'title': 'Baltimore Ave and Underwood St', 'lat': 38.9686098, 'long': -76.9385684}]
[{'stop_id': 'ewhwbeal', 'title': 'East-West Hwy and W Beale Cir', 'lat': 38.9641206, 'long': -76.9379016}]
[{'stop_id': 'ewhwtayl_out', 'title': 'East-West Hwy and Taylor Rd (Outbound)', 'lat': 38.9623242, 'long': -76.9294593}]
[{'stop_id': 'rivd63rd', 'title': 'Riverdale Rd and 63rd Ave', 'lat': 38.9609676, 'long': -76.9100993}]
[{'stop_id': 'riveeast', 'title': 'Riverdale Rd and Eastpine Dr', 'lat': 38.9610499, 'long': -76.9067853}]
[{'stop_id': 'rive67th', 'title': 'Riverdale Rd and 67th Ave', 'lat': 38.9613322, 'long': -76.9028455}]
[{'stop_id': 'riveaubu', 'title': 'Riverdale Rd and Auburn Ave', 'lat': 38.9642799, 'long': -76.8971077}]
[{'stop_id': 'rivemart', 'title': 'Riverdale Rd and Martins Ln', 'lat': 38.9634325, 'long': -76.8893633}]
[{'stop_id': 'rivefinn', 'title': 'Riverdale Rd and Finns Ln', 'lat': 38.9620909, 'long': -76.8867462}]
[{'stop_id': 'rivelamo', 'title': 'Riverdale Rd and Lamont Dr', 'lat': 38.9613655, 'long': -76.8826626}]
[{'stop_id': 'founclap', 'title': 'Riverdale Rd at Fountain Club Apartments', 'lat': 38.9600285, 'long': -76.8795845}]
[{'stop_id': 'rivemaho', 'title': 'Riverdale Rd and Mahoney Dr', 'lat': 38.9595921, 'long': -76.8776599}]
[{'stop_id': 'herisqap', 'title': 'Riverdale Rd at Heritage Square Apartments', 'lat': 38.9585214, 'long': -76.8752214}]
[{'stop_id': 'annarive', 'title': 'Annapolis Rd and Riverdale Rd', 'lat': 38.9554776, 'long': -76.8735862}]
[{'stop_id': 'harkanna', 'title': 'Harkins Rd and Annapolis Rd', 'lat': 38.9523513, 'long': -76.8776441}]
[{'stop_id': 'ncarmetr', 'title': 'New Carrollton Metro Station', 'lat': 38.950275, 'long': -76.872531}]
[{'stop_id': 'lenocrap', 'title': '85th Ave at Lenox Court Apartments', 'lat': 38.9538912, 'long': -76.86878}]
[{'stop_id': 'carrmnap', 'title': '85th Ave at Carrollton Manor Apartments', 'lat': 38.9560194, 'long': -76.8682799}]
[{'stop_id': 'long85th', 'title': '85th Ave and Longfellow St', 'lat': 38.9595984, 'long': -76.8697998}]
[{'stop_id': 'lega85th', 'title': '85th Ave and Legation St', 'lat': 38.9607897, 'long': -76.86988}]
[{'stop_id': 'westmadi', 'title': 'Westbrook Dr and Madison St', 'lat': 38.9623382, 'long': -76.8702329}]
[{'stop_id': 'westogle', 'title': 'Westbrook Dr and Oglethorpe St', 'lat': 38.9642507, 'long': -76.8715631}]
[{'stop_id': 'westpowh', 'title': 'Westbrook Dr and Powhatan St', 'lat': 38.9655375, 'long': -76.8730066}]
[{'stop_id': 'westlamo', 'title': 'Westbrook Dr and Lamont Dr', 'lat': 38.9658, 'long': -76.8802797}]
[{'stop_id': 'lamolarc', 'title': 'Lamont Dr and Larchwood St', 'lat': 38.9678768, 'long': -76.8798726}]
[{'stop_id': 'lamocarr', 'title': 'Lamont Dr and Carrollton Pkwy', 'lat': 38.9693724, 'long': -76.8801133}]
[{'stop_id': 'lamoquen', 'title': 'Lamont Dr and Quentin St', 'lat': 38.9718528, 'long': -76.8807906}]
[{'stop_id': 'lamodono', 'title': 'Lamont Dr and Donoghue Dr', 'lat': 38.9746629, 'long': -76.8821712}]
[{'stop_id': 'lamoelem', 'title': 'Good Luck Rd at Lamont Elementary School', 'lat': 38.97497, 'long': -76.8838799}]
[{'stop_id': 'gdlknash', 'title': 'Good Luck Rd and Nashville Rd', 'lat': 38.9746889, 'long': -76.8864035}]
[{'stop_id': 'gdlkian', 'title': 'Good Luck Rd and Ian St', 'lat': 38.9725315, 'long': -76.8912732}]
[{'stop_id': 'aubuches', 'title': 'Auburn Ave and Chestnut Ave', 'lat': 38.9714872, 'long': -76.893795}]
[{'stop_id': 'aubu3rd', 'title': 'Auburn Ave and 3rd St', 'lat': 38.9691259, 'long': -76.8948129}]
[{'stop_id': 'aubu1st', 'title': 'Auburn Ave and 1st St', 'lat': 38.96631, 'long': -76.8960399}]
[{'stop_id': 'auburive', 'title': 'Auburn Ave and Riverdale Rd', 'lat': 38.9650301, 'long': -76.8966299}]
[{'stop_id': 'wildshop', 'title': 'Riverdale Rd at Wildercroft Shopping Center', 'lat': 38.9644101, 'long': -76.8978744}]
[{'stop_id': 'rive67ct', 'title': 'Riverdale Rd and 67th Ct', 'lat': 38.9618134, 'long': -76.9023121}]
[{'stop_id': 'rive64th', 'title': 'Riverdale Rd and 64th Ave', 'lat': 38.9612295, 'long': -76.907408}]
[{'stop_id': 'rive62nd_in', 'title': 'Riverdale Rd and 62nd Place', 'lat': 38.9607608, 'long': -76.9120177}]
[{'stop_id': 'rive58th', 'title': 'Riverdale Rd at St Jude Lutheran Church', 'lat': 38.9601372, 'long': -76.915671}]
[{'stop_id': 'ewhwtayl_in', 'title': 'East-West Hwy and Taylor Rd (Inbound)', 'lat': 38.9624905, 'long': -76.9290223}]
[{'stop_id': 'baltsher', 'title': 'Baltimore Ave and Sheridan St', 'lat': 38.9657284, 'long': -76.9388188}]
[{'stop_id': 'ngarmo', 'title': 'Baltimore Ave at National Guard Armory', 'lat': 38.9683105, 'long': -76.9384612}]
[{'stop_id': 'baltrive_in', 'title': 'Baltimore Avenue at Riverdale Park Station (Inbound)', 'lat': 38.9697021, 'long': -76.9382695}]
[{'stop_id': 'baltamhe', 'title': 'Baltimore Ave and Amherst Rd', 'lat': 38.9728518, 'long': -76.937862}]
[{'stop_id': 'campmath_m', 'title': 'Campus Dr at Math Slip', 'lat': 38.9878607, 'long': -76.9386064}]
[{'stop_id': 'baltmacd', 'title': 'Baltimore Avenue and Berwyn House Road', 'lat': 38.9923857, 'long': -76.9331919}]
[{'stop_id': 'baltqueb_out', 'title': 'Baltimore Ave and Quebec St(Outbound)', 'lat': 38.9946079, 'long': -76.9322248}]
[{'stop_id': 'balttecu', 'title': 'Baltimore Avenue and Tecumseh Street', 'lat': 38.9974284, 'long': -76.9315668}]
[{'stop_id': 'rhoduniv', 'title': 'Rhode Island Avenue and University Boulevard (Outbound)', 'lat': 39.0009848, 'long': -76.92481}]
[{'stop_id': 'rhodcher', 'title': 'Rhode Island Avenue and Cherokee Street (Outbound)', 'lat': 39.0023911, 'long': -76.9244429}]
[{'stop_id': 'rhodfox', 'title': 'Rhode Island Avenue and Fox Street (Outbound)', 'lat': 39.0059745, 'long': -76.9235001}]
[{'stop_id': 'rhodholl', 'title': 'Rhode Island Avenue and Hollywood Road (Outbound)', 'lat': 39.0108965, 'long': -76.9221691}]
[{'stop_id': 'rhodshop', 'title': 'Rhode Island Avenue at Hollywood Shopping Center', 'lat': 39.0138375, 'long': -76.9213841}]
[{'stop_id': 'edgerhod', 'title': 'Edgewood Road and Rhode Island Avenue (Outbound)', 'lat': 39.0161019, 'long': -76.9214156}]
[{'stop_id': 'edge49th', 'title': 'Edgewood Road and 49th Avenue (Outbound)', 'lat': 39.0160649, 'long': -76.924355}]
[{'stop_id': 'mazz', 'title': 'Mazza GrandMarc', 'lat': 39.0111215, 'long': -76.9300394}]
[{'stop_id': 'baltberw_s', 'title': 'Baltimore Ave and Berwyn Rd (Inbound)', 'lat': 38.996407, 'long': -76.931829}]
[{'stop_id': 'baltqueb_in', 'title': 'Baltimore Ave and Quebec St (Inbound)', 'lat': 38.9946243, 'long': -76.932356}]
[{'stop_id': 'varsfron', 'title': 'Baltimore Ave at The Varsity', 'lat': 38.9908311, 'long': -76.9340076}]
[{'stop_id': 'dent_e', 'title': 'Denton Hall', 'lat': 38.9919412, 'long': -76.9500943}]
[{'stop_id': 'enclave_s', 'title': 'The Enclave', 'lat': 38.99782, 'long': -76.93182}]
[{'stop_id': 'vars', 'title': 'Baltimore Ave at The Varsity', 'lat': 38.9908313, 'long': -76.9340075}]
[{'stop_id': 'laplat_out', 'title': 'La Plata Hall (Outbound)', 'lat': 38.9928692, 'long': -76.945597}]
[{'stop_id': 'hage_out', 'title': 'Hagerstown Hall (Outbound)', 'lat': 38.9930112, 'long': -76.9477048}]
[{'stop_id': 'elkton_out', 'title': 'Elkton Hall (Outbound)', 'lat': 38.992501, 'long': -76.9486289}]
[{'stop_id': 'vallstad', 'title': 'Valley Drive at Stadium Drive Garage (Outbound)', 'lat': 38.9902296, 'long': -76.949457}]
[{'stop_id': 'benj', 'title': 'Benjamin Building', 'lat': 38.987176, 'long': -76.9471001}]
[{'stop_id': 'amersafe', 'title': 'America Boulevard at Safeway', 'lat': 38.9674013, 'long': -76.9522059}]
[{'stop_id': 'amerregal', 'title': 'America Boulevard at Regal Cinemas Hyattsville', 'lat': 38.9689219, 'long': -76.952074}]
[{'stop_id': 'guilrowa_in', 'title': 'Guilford Drive and Rowalt Drive (Inbound)', 'lat': 38.9781553, 'long': -76.9390836}]
[{'stop_id': 'hage_in', 'title': 'Hagerstown Hall (Inbound)', 'lat': 38.99297, 'long': -76.9475987}]
[{'stop_id': 'laplat_in', 'title': 'La Plata Hall (Inbound)', 'lat': 38.9922184, 'long': -76.94563}]
[{'stop_id': 'painglen_ob', 'title': 'Glenn L. Martin Wind Tunnel', 'lat': 38.98995, 'long': -76.93725}]
[{'stop_id': 'baltpaca', 'title': 'Baltimore St & Paca St', 'lat': 39.2897837, 'long': -76.6223289}]
[{'stop_id': 'painglen_ib', 'title': 'Glenn L. Martin Wind Tunnel', 'lat': 38.98995, 'long': -76.93725}]
[{'stop_id': 'wdiapknr_d', 'title': 'West Diamond Ave Park & Ride Lot', 'lat': 39.1411079, 'long': -77.211631}]
[{'stop_id': 'brokride', 'title': 'Broken Land Park & Ride East Lot', 'lat': 39.174232, 'long': -76.8494732}]
[{'stop_id': 'greeseve_ob', 'title': 'Greenbelt Rd at Severn Building (Outbound)', 'lat': 38.99809, 'long': -76.9244527}]
[{'stop_id': 'greestat_ob', 'title': 'Greenbelt Road and Greenbelt Station Parkway (Outbound)', 'lat': 38.9980441, 'long': -76.9183707}]
[{'stop_id': 'gree60th_ob', 'title': 'Greenbelt Rd and 60th Ave', 'lat': 38.9979499, 'long': -76.9126796}]
[{'stop_id': '60thgree_ob', 'title': '60th Ave and Greenbelt Rd (Outbound)', 'lat': 38.9973235, 'long': -76.911988}]
[{'stop_id': '60thruat_ob', 'title': '60th Ave and Ruatan St (Outbound)', 'lat': 38.9947933, 'long': -76.9115234}]
[{'stop_id': 'cunnpont', 'title': 'Cunningham Dr and Pontiac St', 'lat': 38.9923653, 'long': -76.9130547}]
[{'stop_id': 'pont63rd_ob', 'title': 'Pontiac St and 63rd Ave (Outbound)', 'lat': 38.9910682, 'long': -76.9080273}]
[{'stop_id': 'westpark_ob', 'title': 'Westchester Park Circle', 'lat': 38.9899966, 'long': -76.9043144}]
[{'stop_id': 'ridgivy_ob', 'title': 'Ridge Road and Ivy Lane', 'lat': 39.0076373, 'long': -76.8907826}]
[{'stop_id': 'ivylast_ob', 'title': 'Ivy Lane and Lastner Lane', 'lat': 39.0074111, 'long': -76.8889441}]
[{'stop_id': 'lastjuli_ob', 'title': 'Lastner Lane and Julian Court (Outbound)', 'lat': 39.009003, 'long': -76.8855675}]
[{'stop_id': 'ridgrese_ob', 'title': 'Ridge Road and Research Road (Outbound)', 'lat': 39.0113012, 'long': -76.8784344}]
[{'stop_id': 'ridgplat_ob', 'title': 'Ridge Road and Plateau Place (Outbound)', 'lat': 39.0090892, 'long': -76.8734108}]
[{'stop_id': 'ridgeast_ob', 'title': 'Ridge Road and Eastway (Outbound)', 'lat': 39.0050668, 'long': -76.8729771}]
[{'stop_id': 'ridggard_ob', 'title': 'Ridge Road and Gardenway (Outbound)', 'lat': 39.0008081, 'long': -76.8729202}]
[{'stop_id': 'ridggrid', 'title': 'Ridge Road at Green Ridge House Apartments', 'lat': 38.9992112, 'long': -76.874829}]
[{'stop_id': 'westridg_ob', 'title': 'Westway and Ridge Road (Outbound)', 'lat': 38.9994685, 'long': -76.8821864}]
[{'stop_id': 'lakewest_ob', 'title': 'Lakeside Drive and Westway (Outbound)', 'lat': 38.9985222, 'long': -76.8850616}]
[{'stop_id': 'lakegree_ob', 'title': 'Lakecrest Drive and Greenbelt Road (Outbound)', 'lat': 38.9960411, 'long': -76.886761}]
[{'stop_id': 'greegree_ob', 'title': 'Greenbelt Rd at Greenway Center (Outbound)', 'lat': 38.9939788, 'long': -76.8775104}]
[{'stop_id': 'oraghano_ob', 'title': 'Ora Glen Dr and Hanover Pkwy', 'lat': 38.99108, 'long': -76.8757162}]
[{'stop_id': 'oraggree_ob', 'title': 'Ora Glen Dr and Greenbrook Dr', 'lat': 38.9902385, 'long': -76.870705}]
[{'stop_id': 'oragmorr', 'title': 'Ora Glen Drive and Morrison Drive', 'lat': 38.9892076, 'long': -76.8672934}]
[{'stop_id': 'mandcann_ob', 'title': 'Mandan Rd and Canning Terr', 'lat': 38.9904441, 'long': -76.8643979}]
[{'stop_id': 'mandgoak_d', 'title': 'Mandan Rd at Glen Oaks Apartments', 'lat': 38.992671, 'long': -76.864278}]
[{'stop_id': 'mandhano_ib', 'title': 'Mandan Rd and Hanover Pkwy', 'lat': 38.9979006, 'long': -76.8654631}]
[{'stop_id': 'hanoelea_ib', 'title': 'Hanover Pkwy at Eleanor Roosevelt High School', 'lat': 38.9965594, 'long': -76.8705396}]
[{'stop_id': 'hanogree_ib', 'title': 'Hanover Pkwy and Greenbelt Rd', 'lat': 38.9948379, 'long': -76.8740241}]
[{'stop_id': 'greegreei_ib', 'title': 'Greenbelt Rd at Greenway Center (Inbound)', 'lat': 38.9942301, 'long': -76.8770008}]
[{'stop_id': 'lakegree_ib', 'title': 'Lakecrest Drive and Greenbelt Road (Inbound)', 'lat': 38.9960957, 'long': -76.8866386}]
[{'stop_id': 'lakelake_ib', 'title': 'Lakecrest Dr and Lakeside Dr', 'lat': 38.9978001, 'long': -76.886087}]
[{'stop_id': 'lakewest_ib', 'title': 'Lakeside Dr and Westway (Inbound)', 'lat': 38.9986079, 'long': -76.8848814}]
[{'stop_id': 'westridg_ib', 'title': 'Westway and Ridge Rd (Inbound)', 'lat': 38.9995338, 'long': -76.8819761}]
[{'stop_id': 'ridgsout_ib', 'title': 'Ridge Rd and Southway', 'lat': 38.9986295, 'long': -76.8767675}]
[{'stop_id': 'ridggard_ib', 'title': 'Ridge Rd and Gardenway (Inbound)', 'lat': 39.0006214, 'long': -76.8729368}]
[{'stop_id': 'ridgeast_ib', 'title': 'Ridge Rd and Eastway (Inbound)', 'lat': 39.0048962, 'long': -76.8727822}]
[{'stop_id': 'ridgplat_ib', 'title': 'Ridge Rd and Plateau Pl (Inbound)', 'lat': 39.0092352, 'long': -76.8733011}]
[{'stop_id': 'ridgrese_ib', 'title': 'Ridge Rd and Research Rd (Inbound)', 'lat': 39.0113699, 'long': -76.8780186}]
[{'stop_id': 'lastjuli_ib', 'title': 'Lastner Ln and Julian Ct (Inbound)', 'lat': 39.0090903, 'long': -76.8853262}]
[{'stop_id': 'lastivy_ib', 'title': 'Lastner Ln and Ivy Ln', 'lat': 39.0075078, 'long': -76.8887266}]
[{'stop_id': 'ivyridg_ib', 'title': 'Ivy Ln and Ridge Rd', 'lat': 39.0077479, 'long': -76.8906287}]
[{'stop_id': 'westpark_ib', 'title': 'Westchester Park Circle', 'lat': 38.9899967, 'long': -76.9043145}]
[{'stop_id': 'pont63rd_ib', 'title': 'Pontiac St and 63rd Ave (Inbound)', 'lat': 38.9910473, 'long': -76.9076994}]
[{'stop_id': 'pontcunn_ib', 'title': 'Pontiac St and Cunningham Dr', 'lat': 38.9922585, 'long': -76.9129185}]
[{'stop_id': 'ruat60th_ib', 'title': '60th Ave and Ruatan St (Inbound)', 'lat': 38.9946237, 'long': -76.9114003}]
[{'stop_id': 'gree60th_ib', 'title': '60th Ave and Greenbelt Rd (Inbound)', 'lat': 38.9972712, 'long': -76.9119102}]
[{'stop_id': 'greestat_ib', 'title': 'Greenbelt Road and Greenbelt Station Parkway (Inbound)', 'lat': 38.9981455, 'long': -76.918404}]
[{'stop_id': 'greerhod_ib', 'title': 'Greenbelt Rd at Severn Building (Inbound)', 'lat': 38.9982133, 'long': -76.9254433}]
[{'stop_id': 'enclave', 'title': 'The Enclave', 'lat': 38.99782, 'long': -76.93182}]
[{'stop_id': 'bowiuniv', 'title': 'Bowie State University', 'lat': 39.0176137, 'long': -76.7613399}]
